,City,Cloudiness,Country,Date,Humidity,Lat,Lng,Max Temp,Wind Speed,Date_convert
0,kaitangata,44,NZ,1538269006,96,-46.28,169.85,51.04,4.16,Sat Sep 29 20:56:46 2018
1,jamestown,20,AU,1538268993,36,-33.21,138.6,57.25,14.12,Sat Sep 29 20:56:33 2018
2,guerrero negro,0,MX,1538269275,50,27.97,-114.04,83.35,9.64,Sat Sep 29 21:01:15 2018
3,provideniya,92,RU,1538269010,88,64.42,-173.23,49.24,28.77,Sat Sep 29 20:56:50 2018
4,port alfred,0,ZA,1538268997,89,-33.59,26.89,63.37,20.6,Sat Sep 29 20:56:37 2018
5,albany,20,US,1538265240,66,42.65,-73.75,55.94,4.05,Sat Sep 29 19:54:00 2018
6,pevek,32,RU,1538269020,78,69.7,170.27,50.14,13.11,Sat Sep 29 20:57:00 2018
7,nikolskoye,0,RU,1538265600,75,59.7,30.79,42.8,13.42,Sat Sep 29 20:00:00 2018
8,nantucket,90,US,1538267700,87,41.28,-70.1,62.96,4.7,Sat Sep 29 20:35:00 2018
9,rikitea,24,PF,1538268977,100,-23.12,-134.97,73.09,12.21,Sat Sep 29 20:56:17 2018
10,puerto ayora,20,EC,1538265600,73,-0.74,-90.35,77.0,18.34,Sat Sep 29 20:00:00 2018
11,swedru,88,GH,1538269214,94,6.83,-1.6,73.9,5.95,Sat Sep 29 21:00:14 2018
12,cidreira,0,BR,1538269038,78,-30.17,-50.22,72.82,14.67,Sat Sep 29 20:57:18 2018
13,souillac,0,FR,1538267400,62,45.6,-0.6,57.2,3.36,Sat Sep 29 20:30:00 2018
14,ushuaia,90,AR,1538265600,98,-54.81,-68.31,32.0,17.22,Sat Sep 29 20:00:00 2018
15,barrow,0,AR,1538268997,90,-38.31,-60.23,50.77,9.08,Sat Sep 29 20:56:37 2018
16,riyadh,0,SA,1538265600,38,24.63,46.72,77.0,6.93,Sat Sep 29 20:00:00 2018
17,kamenka,64,RU,1538269216,96,53.19,44.05,39.25,6.06,Sat Sep 29 21:00:16 2018
18,nakhon phanom,0,LA,1538269217,87,17.4,104.79,73.54,2.37,Sat Sep 29 21:00:17 2018
19,allapalli,44,IN,1538269217,84,19.43,80.06,80.2,2.59,Sat Sep 29 21:00:17 2018
20,severo-kurilsk,8,RU,1538268996,88,50.68,156.12,52.57,6.62,Sat Sep 29 20:56:36 2018
21,ponta do sol,76,BR,1538268994,71,-20.63,-46.0,72.37,6.4,Sat Sep 29 20:56:34 2018
22,yellowknife,75,CA,1538267040,90,62.45,-114.38,32.0,10.29,Sat Sep 29 20:24:00 2018
23,luderitz,0,NA,1538269217,76,-26.65,15.16,60.49,4.5,Sat Sep 29 21:00:17 2018
24,tuktoyaktuk,75,CA,1538266500,86,69.44,-133.03,26.6,2.24,Sat Sep 29 20:15:00 2018
25,ilovlya,0,RU,1538267400,71,49.31,43.98,50.0,4.47,Sat Sep 29 20:30:00 2018
26,santa cruz,1,US,1538267700,60,36.97,-122.03,73.94,11.41,Sat Sep 29 20:35:00 2018
27,leningradskiy,48,RU,1538269069,82,69.38,178.42,44.92,20.6,Sat Sep 29 20:57:49 2018
28,emba,0,CY,1538267400,53,34.81,32.42,77.0,3.36,Sat Sep 29 20:30:00 2018
29,batagay-alyta,64,RU,1538269222,73,67.8,130.41,20.08,2.71,Sat Sep 29 21:00:22 2018
30,albert lea,90,US,1538268600,76,43.65,-93.37,48.2,11.41,Sat Sep 29 20:50:00 2018
31,chumikan,0,RU,1538269225,82,54.72,135.31,46.9,4.5,Sat Sep 29 21:00:25 2018
32,punta arenas,90,CL,1538267400,93,-53.16,-70.91,35.6,13.87,Sat Sep 29 20:30:00 2018
33,changping,0,CN,1538267400,44,40.22,116.23,59.0,11.18,Sat Sep 29 20:30:00 2018
34,kroya,0,ID,1538269226,74,-6.5,108.06,72.19,3.94,Sat Sep 29 21:00:26 2018
35,lebu,75,ET,1538265600,58,8.96,38.73,57.2,6.93,Sat Sep 29 20:00:00 2018
36,cape town,0,ZA,1538265600,87,-33.93,18.42,51.8,5.82,Sat Sep 29 20:00:00 2018
37,fez,40,MA,1538267400,77,34.03,-5.02,69.8,4.7,Sat Sep 29 20:30:00 2018
38,koubia,48,GN,1538269227,96,11.59,-11.89,67.24,3.15,Sat Sep 29 21:00:27 2018
39,avarua,75,CK,1538265600,60,-21.21,-159.78,75.2,9.17,Sat Sep 29 20:00:00 2018
40,nokaneng,44,BW,1538269290,23,-19.66,22.19,80.29,16.8,Sat Sep 29 21:01:30 2018
41,richards bay,80,ZA,1538269046,92,-28.77,32.06,62.47,2.59,Sat Sep 29 20:57:26 2018
42,nome,75,US,1538266500,89,30.04,-94.42,77.0,4.7,Sat Sep 29 20:15:00 2018
43,vaini,20,IN,1538268981,94,15.34,74.49,68.32,2.37,Sat Sep 29 20:56:21 2018
44,aljezur,0,PT,1538269066,100,37.31,-8.8,67.69,9.75,Sat Sep 29 20:57:46 2018
45,touros,92,BR,1538269051,90,-5.2,-35.46,77.59,14.0,Sat Sep 29 20:57:31 2018
46,katiola,20,CI,1538265600,94,8.14,-5.1,75.2,4.7,Sat Sep 29 20:00:00 2018
47,hobart,20,AU,1538267400,44,-42.88,147.33,60.8,18.34,Sat Sep 29 20:30:00 2018
48,sorland,92,NO,1538269229,100,67.67,12.69,48.43,19.6,Sat Sep 29 21:00:29 2018
49,ribeira grande,44,PT,1538268997,100,38.52,-28.7,70.84,19.6,Sat Sep 29 20:56:37 2018
50,dingle,64,PH,1538269230,100,11.0,122.67,76.6,4.5,Sat Sep 29 21:00:30 2018
51,neyyattinkara,20,IN,1538267400,94,8.4,77.08,77.0,9.64,Sat Sep 29 20:30:00 2018
52,butaritari,12,KI,1538268980,100,3.07,172.79,85.24,6.51,Sat Sep 29 20:56:20 2018
53,labuan,90,BN,1538267400,83,5.28,115.24,82.4,1.12,Sat Sep 29 20:30:00 2018
54,klaksvik,76,FO,1538266800,87,62.23,-6.59,44.6,16.11,Sat Sep 29 20:20:00 2018
55,yulara,48,AU,1538265600,28,-25.24,130.99,69.8,23.04,Sat Sep 29 20:00:00 2018
56,bredasdorp,12,ZA,1538265600,87,-34.53,20.04,53.6,2.24,Sat Sep 29 20:00:00 2018
57,tasiilaq,0,GL,1538265000,47,65.61,-37.64,35.6,1.12,Sat Sep 29 19:50:00 2018
58,dunedin,88,NZ,1538268837,100,-45.87,170.5,46.45,3.71,Sat Sep 29 20:53:57 2018
59,torbay,90,CA,1538265600,93,47.66,-52.73,62.6,12.75,Sat Sep 29 20:00:00 2018
60,naze,80,NG,1538269232,96,5.43,7.07,73.99,4.72,Sat Sep 29 21:00:32 2018
61,mataura,68,NZ,1538268981,100,-46.19,168.86,50.68,4.38,Sat Sep 29 20:56:21 2018
62,norman wells,75,CA,1538265600,55,65.28,-126.83,37.4,6.93,Sat Sep 29 20:00:00 2018
63,kalangala,44,UG,1538269295,100,-0.32,32.29,73.9,8.19,Sat Sep 29 21:01:35 2018
64,ron,48,IN,1538269233,95,15.7,75.73,68.95,2.93,Sat Sep 29 21:00:33 2018
65,qaanaaq,68,GL,1538269004,100,77.48,-69.36,16.75,4.38,Sat Sep 29 20:56:44 2018
66,bani,12,PH,1538269233,97,15.89,120.27,79.3,3.71,Sat Sep 29 21:00:33 2018
67,trairi,92,BR,1538269051,100,-3.28,-39.27,79.39,18.81,Sat Sep 29 20:57:31 2018
68,busselton,0,AU,1538268992,100,-33.64,115.35,56.8,17.58,Sat Sep 29 20:56:32 2018
69,florianopolis,20,BR,1538265600,88,-27.6,-48.55,71.6,14.99,Sat Sep 29 20:00:00 2018
70,linxia,44,CN,1538269234,73,35.6,103.21,32.77,1.7,Sat Sep 29 21:00:34 2018
71,mahebourg,40,MU,1538265600,83,-20.41,57.7,69.8,10.29,Sat Sep 29 20:00:00 2018
72,timbiqui,92,CO,1538269235,100,2.77,-77.67,73.45,2.37,Sat Sep 29 21:00:35 2018
73,bluff,0,AU,1538268984,44,-23.58,149.07,78.85,9.98,Sat Sep 29 20:56:24 2018
74,neryungri,56,RU,1538269235,66,56.66,124.71,36.73,13.11,Sat Sep 29 21:00:35 2018
75,port lincoln,80,AU,1538269004,85,-34.72,135.86,58.51,17.58,Sat Sep 29 20:56:44 2018
76,carnarvon,0,ZA,1538269049,14,-30.97,22.13,44.65,8.63,Sat Sep 29 20:57:29 2018
77,bethel,75,US,1538265180,53,60.79,-161.76,62.96,14.99,Sat Sep 29 19:53:00 2018
78,verkhoyansk,80,RU,1538269235,82,67.55,133.39,28.0,5.39,Sat Sep 29 21:00:35 2018
79,port macquarie,75,AU,1538265600,45,-31.43,152.91,62.6,9.17,Sat Sep 29 20:00:00 2018
80,buala,48,SB,1538269236,91,-8.15,159.59,82.9,5.17,Sat Sep 29 21:00:36 2018
81,abu kamal,0,SY,1538269236,42,34.45,40.92,69.67,8.19,Sat Sep 29 21:00:36 2018
82,saskylakh,80,RU,1538268984,100,71.97,114.09,31.15,12.44,Sat Sep 29 20:56:24 2018
83,nemuro,75,JP,1538265600,100,43.32,145.57,57.2,2.24,Sat Sep 29 20:00:00 2018
84,constitucion,90,MX,1538264580,56,23.99,-104.67,69.8,9.17,Sat Sep 29 19:43:00 2018
85,fare,0,PF,1538269236,100,-16.7,-151.02,77.5,6.4,Sat Sep 29 21:00:36 2018
86,hermanus,8,ZA,1538268991,78,-34.42,19.24,44.2,2.71,Sat Sep 29 20:56:31 2018
87,narsaq,92,GL,1538265000,64,60.91,-46.05,35.6,2.15,Sat Sep 29 19:50:00 2018
88,beloha,0,MG,1538269236,82,-25.17,45.06,70.75,20.49,Sat Sep 29 21:00:36 2018
89,mar del plata,48,AR,1538268762,55,-46.43,-67.52,46.0,18.81,Sat Sep 29 20:52:42 2018
90,varhaug,75,NO,1538265000,87,58.61,5.65,50.0,17.22,Sat Sep 29 19:50:00 2018
91,morong,40,PH,1538265600,100,14.52,121.24,84.2,3.36,Sat Sep 29 20:00:00 2018
92,avera,1,US,1538267700,95,33.19,-82.53,77.0,3.36,Sat Sep 29 20:35:00 2018
93,yendi,0,GH,1538269237,94,9.45,0.0,73.99,2.71,Sat Sep 29 21:00:37 2018
94,dikson,88,RU,1538268998,83,73.51,80.55,42.67,24.29,Sat Sep 29 20:56:38 2018
95,fortuna,0,ES,1538267400,88,38.18,-1.13,64.4,2.15,Sat Sep 29 20:30:00 2018
96,lokachi,0,UA,1538269238,82,50.74,24.65,34.57,2.93,Sat Sep 29 21:00:38 2018
97,east london,32,ZA,1538268991,100,-33.02,27.91,65.53,22.28,Sat Sep 29 20:56:31 2018
98,chingirlau,12,KZ,1538269238,80,51.09,54.08,50.68,9.98,Sat Sep 29 21:00:38 2018
99,pathein,92,MM,1538269238,98,16.78,94.73,77.95,3.15,Sat Sep 29 21:00:38 2018
100,cherskiy,68,RU,1538269033,88,68.75,161.3,38.89,4.05,Sat Sep 29 20:57:13 2018
101,penzance,0,GB,1538265000,93,50.12,-5.53,50.0,6.93,Sat Sep 29 19:50:00 2018
102,nelson bay,75,AU,1538267400,51,-32.72,152.14,62.6,16.11,Sat Sep 29 20:30:00 2018
103,thompson,90,CA,1538265600,74,55.74,-97.86,33.8,8.05,Sat Sep 29 20:00:00 2018
104,biak,88,ID,1538269239,100,-0.91,122.88,75.16,5.06,Sat Sep 29 21:00:39 2018
105,vanimo,44,PG,1538269239,100,-2.67,141.3,81.73,10.65,Sat Sep 29 21:00:39 2018
106,pasewalk,0,DE,1538267400,86,53.51,13.99,41.0,5.82,Sat Sep 29 20:30:00 2018
107,miles city,90,US,1538268780,88,46.41,-105.84,42.98,6.93,Sat Sep 29 20:53:00 2018
108,kapaa,90,US,1538265540,96,22.08,-159.32,80.06,12.75,Sat Sep 29 19:59:00 2018
109,ialibu,0,PG,1538265600,67,-6.28,143.99,62.6,5.82,Sat Sep 29 20:00:00 2018
110,calama,0,CL,1538265600,10,-22.46,-68.93,64.4,16.11,Sat Sep 29 20:00:00 2018
111,bonavista,76,CA,1538269239,87,48.65,-53.11,58.33,13.44,Sat Sep 29 21:00:39 2018
112,paamiut,92,GL,1538269116,100,61.99,-49.67,38.8,22.62,Sat Sep 29 20:58:36 2018
113,bousse,0,FR,1538267400,70,49.28,6.2,46.4,1.12,Sat Sep 29 20:30:00 2018
114,port elizabeth,1,US,1538265360,89,39.31,-74.98,68.0,3.36,Sat Sep 29 19:56:00 2018
115,saucillo,8,MX,1538269240,27,28.03,-105.29,83.8,5.5,Sat Sep 29 21:00:40 2018
116,dauphin,90,CA,1538265600,42,51.15,-100.04,46.4,8.05,Sat Sep 29 20:00:00 2018
117,upernavik,92,GL,1538269008,100,72.79,-56.15,34.75,16.8,Sat Sep 29 20:56:48 2018
118,airai,0,TL,1538268989,59,-8.93,125.41,75.88,2.59,Sat Sep 29 20:56:29 2018
119,beringovskiy,92,RU,1538269240,95,63.05,179.32,48.7,22.28,Sat Sep 29 21:00:40 2018
120,rio grande,56,BR,1538269241,76,-32.03,-52.1,74.53,19.15,Sat Sep 29 21:00:41 2018
121,coquimbo,64,CL,1538265600,87,-29.95,-71.34,55.4,3.36,Sat Sep 29 20:00:00 2018
122,hithadhoo,64,MV,1538269002,100,-0.6,73.08,82.0,12.77,Sat Sep 29 20:56:42 2018
123,high level,75,CA,1538265600,51,58.52,-117.13,37.4,5.82,Sat Sep 29 20:00:00 2018
124,beboto,44,TD,1538269241,81,8.27,16.94,75.7,2.59,Sat Sep 29 21:00:41 2018
125,san luis,0,AR,1538268943,65,-33.3,-66.34,60.58,14.12,Sat Sep 29 20:55:43 2018
126,kawalu,44,ID,1538269243,94,-7.38,108.21,63.91,1.14,Sat Sep 29 21:00:43 2018
127,sainte-suzanne,0,CH,1538267400,81,47.51,6.77,48.2,1.12,Sat Sep 29 20:30:00 2018
128,mogadishu,92,SO,1538269243,100,2.04,45.34,76.78,13.0,Sat Sep 29 21:00:43 2018
129,nunspeet,90,NL,1538267100,93,52.38,5.78,41.0,2.24,Sat Sep 29 20:25:00 2018
130,vardo,75,US,1538268480,93,39.62,-77.74,66.92,2.59,Sat Sep 29 20:48:00 2018
131,montepuez,0,MZ,1538269244,91,-13.13,39.0,64.9,3.38,Sat Sep 29 21:00:44 2018
132,san juan,40,PH,1538265600,100,14.6,121.03,84.2,3.36,Sat Sep 29 20:00:00 2018
133,new norfolk,20,AU,1538267400,44,-42.78,147.06,60.8,18.34,Sat Sep 29 20:30:00 2018
134,victor harbor,0,AU,1538267400,36,-35.55,138.62,62.6,12.75,Sat Sep 29 20:30:00 2018
135,bathsheba,20,BB,1538265600,78,13.22,-59.52,80.6,18.34,Sat Sep 29 20:00:00 2018
136,bambous virieux,40,MU,1538265600,83,-20.34,57.76,69.8,10.29,Sat Sep 29 20:00:00 2018
137,ponta delgada,20,PT,1538267400,82,37.73,-25.67,66.2,3.36,Sat Sep 29 20:30:00 2018
138,urusha,0,RU,1538269244,57,54.05,122.9,43.3,5.06,Sat Sep 29 21:00:44 2018
139,victoria,90,BN,1538267400,83,5.28,115.24,82.4,1.12,Sat Sep 29 20:30:00 2018
140,bam,0,IR,1538269245,36,29.11,58.36,51.49,5.5,Sat Sep 29 21:00:45 2018
141,lucapa,68,AO,1538269245,93,-8.42,20.74,69.58,4.38,Sat Sep 29 21:00:45 2018
142,khandyga,0,RU,1538269245,68,62.65,135.58,33.67,5.61,Sat Sep 29 21:00:45 2018
143,ahipara,48,NZ,1538269246,69,-35.17,173.16,61.57,12.55,Sat Sep 29 21:00:46 2018
144,esperance,20,TT,1538265600,88,10.24,-61.45,80.6,6.93,Sat Sep 29 20:00:00 2018
145,itacoatiara,0,BR,1538269243,56,-3.14,-58.44,86.95,5.39,Sat Sep 29 21:00:43 2018
146,balkanabat,0,TM,1538269246,36,39.51,54.36,63.46,5.61,Sat Sep 29 21:00:46 2018
147,areosa,75,PT,1538267400,100,41.72,-8.86,62.6,3.36,Sat Sep 29 20:30:00 2018
148,tateyama,75,JP,1538265600,88,36.66,137.31,66.2,3.36,Sat Sep 29 20:00:00 2018
149,cap-aux-meules,20,CA,1538265600,87,47.38,-61.86,48.2,3.36,Sat Sep 29 20:00:00 2018
150,pandan,80,PH,1538269247,100,11.72,122.09,80.29,10.65,Sat Sep 29 21:00:47 2018
151,atuona,92,PF,1538268994,100,-9.8,-139.03,78.04,9.75,Sat Sep 29 20:56:34 2018
152,riachao das neves,24,BR,1538269247,39,-11.75,-44.91,79.3,4.94,Sat Sep 29 21:00:47 2018
153,chara,90,GR,1538265000,93,39.42,22.43,57.2,16.11,Sat Sep 29 19:50:00 2018
154,yumen,80,CN,1538269248,38,40.29,97.04,45.19,4.5,Sat Sep 29 21:00:48 2018
155,collie,8,AU,1538269248,79,-33.36,116.15,54.64,14.23,Sat Sep 29 21:00:48 2018
156,kavaratti,36,IN,1538269017,100,10.57,72.64,80.74,6.4,Sat Sep 29 20:56:57 2018
157,khatanga,8,RU,1538268989,88,71.98,102.47,41.77,13.0,Sat Sep 29 20:56:29 2018
158,balikpapan,40,ID,1538265600,79,-1.24,116.86,84.2,5.82,Sat Sep 29 20:00:00 2018
159,kavieng,8,PG,1538269014,100,-2.57,150.8,85.42,5.61,Sat Sep 29 20:56:54 2018
160,dvinskoy,0,RU,1538269248,89,62.16,45.12,32.23,5.73,Sat Sep 29 21:00:48 2018
161,port hedland,0,AU,1538267400,39,-20.31,118.58,80.6,18.34,Sat Sep 29 20:30:00 2018
162,keller,75,US,1538266500,76,32.93,-97.23,78.98,9.17,Sat Sep 29 20:15:00 2018
163,georgetown,0,GY,1538265600,88,6.8,-58.16,78.8,4.7,Sat Sep 29 20:00:00 2018
164,le port,56,FR,1538269251,98,42.87,1.37,47.71,1.59,Sat Sep 29 21:00:51 2018
165,staroaleyskoye,0,RU,1538269251,68,51.01,82.0,34.39,2.71,Sat Sep 29 21:00:51 2018
166,chama,0,ZM,1538269252,52,-11.22,33.16,67.51,11.77,Sat Sep 29 21:00:52 2018
167,nioki,88,CD,1538269252,98,-2.72,17.69,73.27,2.37,Sat Sep 29 21:00:52 2018
168,tandlianwala,0,PK,1538269252,89,31.03,73.13,67.24,2.71,Sat Sep 29 21:00:52 2018
169,candelaria,20,CO,1538265600,61,3.41,-76.35,77.0,10.29,Sat Sep 29 20:00:00 2018
170,arraial do cabo,92,BR,1538269254,96,-22.97,-42.02,73.27,12.1,Sat Sep 29 21:00:54 2018
171,lorengau,24,PG,1538269009,98,-2.02,147.27,84.34,12.66,Sat Sep 29 20:56:49 2018
172,chuy,92,UY,1538269010,97,-33.69,-53.46,66.79,6.17,Sat Sep 29 20:56:50 2018
173,hambantota,88,LK,1538269254,100,6.12,81.12,77.14,8.41,Sat Sep 29 21:00:54 2018
174,karasjok,88,NO,1538266800,86,69.47,25.52,37.4,28.86,Sat Sep 29 20:20:00 2018
175,kahului,40,US,1538268300,66,20.89,-156.47,89.06,13.87,Sat Sep 29 20:45:00 2018
176,pasni,0,PK,1538269255,95,25.26,63.48,78.4,7.52,Sat Sep 29 21:00:55 2018
177,husavik,48,CA,1538269057,77,50.56,-96.99,43.21,8.52,Sat Sep 29 20:57:37 2018
178,tiksi,80,RU,1538269035,95,71.64,128.87,31.42,7.52,Sat Sep 29 20:57:15 2018
179,golubitskaya,24,RU,1538267400,87,45.32,37.28,57.2,2.24,Sat Sep 29 20:30:00 2018
180,shimoda,75,JP,1538265600,88,34.7,138.93,69.8,13.87,Sat Sep 29 20:00:00 2018
181,chase,90,US,1538268000,73,43.89,-85.64,46.4,3.38,Sat Sep 29 20:40:00 2018
182,tairua,0,NZ,1538269256,54,-37.02,175.85,61.39,4.16,Sat Sep 29 21:00:56 2018
183,mantua,40,IT,1538266800,48,45.16,10.79,62.6,5.82,Sat Sep 29 20:20:00 2018
184,komsomolskiy,92,RU,1538269255,99,67.55,63.78,35.92,18.59,Sat Sep 29 21:00:55 2018
185,kruisfontein,0,ZA,1538269009,81,-34.0,24.73,61.39,18.81,Sat Sep 29 20:56:49 2018
186,alice springs,0,AU,1538267400,23,-23.7,133.88,75.2,17.22,Sat Sep 29 20:30:00 2018
187,san cristobal,40,EC,1538265600,63,-0.39,-78.55,60.8,13.87,Sat Sep 29 20:00:00 2018
188,geraldton,90,CA,1538265600,69,49.72,-86.95,33.8,5.82,Sat Sep 29 20:00:00 2018
189,codrington,92,AU,1538268981,99,-28.95,153.24,58.78,5.39,Sat Sep 29 20:56:21 2018
190,ilulissat,48,GL,1538265000,50,69.22,-51.1,33.8,10.29,Sat Sep 29 19:50:00 2018
191,atar,20,MR,1538269079,66,20.52,-13.05,74.8,5.39,Sat Sep 29 20:57:59 2018
192,palana,92,RU,1538269257,94,59.08,159.95,40.6,5.95,Sat Sep 29 21:00:57 2018
193,sao filipe,88,CV,1538268977,100,14.9,-24.5,77.32,8.41,Sat Sep 29 20:56:17 2018
194,dodge city,1,US,1538265240,58,37.75,-100.02,73.94,12.75,Sat Sep 29 19:54:00 2018
195,lata,0,IN,1538269257,77,30.78,78.62,45.91,2.15,Sat Sep 29 21:00:57 2018
196,comodoro rivadavia,0,AR,1538265600,81,-45.87,-67.48,44.6,4.7,Sat Sep 29 20:00:00 2018
197,marsa matruh,0,EG,1538265600,64,31.35,27.25,75.2,4.7,Sat Sep 29 20:00:00 2018
198,goundam,48,ML,1538269258,74,16.42,-3.66,79.84,3.71,Sat Sep 29 21:00:58 2018
199,alta floresta,20,BR,1538269021,94,-9.87,-56.08,76.51,0.92,Sat Sep 29 20:57:01 2018
200,clyde river,90,CA,1538265600,92,70.47,-68.59,23.0,13.87,Sat Sep 29 20:00:00 2018
201,vallenar,64,CL,1538269020,77,-28.58,-70.76,56.71,1.48,Sat Sep 29 20:57:00 2018
202,fairbanks,1,US,1538265480,6,64.84,-147.72,63.14,9.17,Sat Sep 29 19:58:00 2018
203,bulawayo,0,ZW,1538269258,53,-20.16,28.59,63.1,19.6,Sat Sep 29 21:00:58 2018
204,kars,0,TR,1538267400,76,40.61,43.1,50.0,2.71,Sat Sep 29 20:30:00 2018
205,warrington,75,GB,1538268600,76,53.39,-2.59,53.6,14.99,Sat Sep 29 20:50:00 2018
206,moose factory,75,CA,1538265600,80,51.26,-80.61,33.8,12.75,Sat Sep 29 20:00:00 2018
207,utrera,0,ES,1538267400,78,37.18,-5.78,71.6,8.05,Sat Sep 29 20:30:00 2018
208,inhambane,68,MZ,1538269259,90,-23.87,35.38,71.92,22.62,Sat Sep 29 21:00:59 2018
209,sawakin,0,SD,1538269259,99,19.1,37.33,73.9,2.59,Sat Sep 29 21:00:59 2018
210,terney,0,RU,1538269259,84,45.05,136.61,60.31,1.36,Sat Sep 29 21:00:59 2018
211,noumea,40,NC,1538267400,45,-22.28,166.46,86.0,10.29,Sat Sep 29 20:30:00 2018
212,castro,56,CL,1538269002,96,-42.48,-73.76,37.81,8.08,Sat Sep 29 20:56:42 2018
213,san andres,44,PH,1538268981,100,13.32,122.68,82.54,7.74,Sat Sep 29 20:56:21 2018
214,jaguarao,56,BR,1538269260,86,-32.57,-53.38,72.82,15.01,Sat Sep 29 21:01:00 2018
215,leibnitz,0,AT,1538267400,86,46.78,15.54,39.2,2.71,Sat Sep 29 20:30:00 2018
216,glace bay,75,CA,1538265600,87,46.2,-59.96,55.4,6.93,Sat Sep 29 20:00:00 2018
217,labis,0,MY,1538269261,90,2.38,103.02,74.62,2.04,Sat Sep 29 21:01:01 2018
218,te anau,56,NZ,1538269261,100,-45.41,167.72,44.74,3.49,Sat Sep 29 21:01:01 2018
219,iquitos,40,PE,1538265600,88,-3.75,-73.25,78.8,2.24,Sat Sep 29 20:00:00 2018
220,san jose de las lajas,75,CU,1538265300,83,22.96,-82.15,77.0,5.82,Sat Sep 29 19:55:00 2018
221,boa vista,0,BR,1538269200,62,2.82,-60.67,86.0,6.93,Sat Sep 29 21:00:00 2018
222,aguie,0,NE,1538269263,76,13.51,7.78,74.71,4.38,Sat Sep 29 21:01:03 2018
223,bosobolo,88,CD,1538269263,98,4.19,19.88,69.85,0.69,Sat Sep 29 21:01:03 2018
224,saint-philippe,75,CA,1538268000,81,45.36,-73.48,55.4,5.82,Sat Sep 29 20:40:00 2018
225,qaqortoq,92,GL,1538268600,51,60.72,-46.03,37.4,4.7,Sat Sep 29 20:50:00 2018
226,fort nelson,40,CA,1538265600,44,58.81,-122.69,41.0,3.36,Sat Sep 29 20:00:00 2018
227,san angelo,20,US,1538265060,53,31.46,-100.44,82.94,3.36,Sat Sep 29 19:51:00 2018
228,ust-omchug,88,RU,1538269265,82,61.13,149.63,30.25,8.41,Sat Sep 29 21:01:05 2018
229,lakatoro,80,VU,1538269327,97,-16.11,167.42,76.69,14.0,Sat Sep 29 21:02:07 2018
230,zhoucun,0,CN,1538269266,39,35.48,112.62,55.0,6.96,Sat Sep 29 21:01:06 2018
231,southport,1,US,1538268960,82,42.05,-76.82,51.08,3.15,Sat Sep 29 20:56:00 2018
232,kodiak,90,US,1538268780,86,39.95,-94.76,60.08,4.7,Sat Sep 29 20:53:00 2018
233,aklavik,75,CA,1538265600,74,68.22,-135.01,33.8,6.93,Sat Sep 29 20:00:00 2018
234,sioux lookout,75,CA,1538265600,64,50.1,-91.92,39.2,9.17,Sat Sep 29 20:00:00 2018
235,tamiahua,68,MX,1538269267,100,21.28,-97.45,81.19,7.07,Sat Sep 29 21:01:07 2018
236,katsuura,75,JP,1538266500,88,33.93,134.5,78.8,24.16,Sat Sep 29 20:15:00 2018
237,sikasso,80,ML,1538269268,97,11.32,-5.68,69.49,4.16,Sat Sep 29 21:01:08 2018
238,caravelas,12,BR,1538269028,100,-17.73,-39.27,77.14,7.18,Sat Sep 29 20:57:08 2018
239,emerald,0,AU,1538269268,42,-23.53,148.16,78.31,9.98,Sat Sep 29 21:01:08 2018
240,namibe,32,AO,1538269269,98,-15.19,12.15,69.13,1.48,Sat Sep 29 21:01:09 2018
241,ostrovnoy,8,RU,1538269269,92,68.05,39.51,24.4,10.98,Sat Sep 29 21:01:09 2018
242,rengo,92,CL,1538265600,66,-34.41,-70.86,55.4,9.17,Sat Sep 29 20:00:00 2018
243,haines junction,0,CA,1538269003,40,60.75,-137.51,46.27,2.71,Sat Sep 29 20:56:43 2018
244,elko,1,US,1538268960,3,40.83,-115.76,78.08,8.05,Sat Sep 29 20:56:00 2018
245,deputatskiy,68,RU,1538269057,88,69.3,139.9,25.93,3.94,Sat Sep 29 20:57:37 2018
246,the valley,20,AI,1538265600,70,18.22,-63.06,84.2,3.36,Sat Sep 29 20:00:00 2018
247,hilo,75,US,1538267460,68,19.71,-155.08,86.0,11.41,Sat Sep 29 20:31:00 2018
248,saldanha,44,PT,1538269000,76,41.42,-6.55,59.05,3.15,Sat Sep 29 20:56:40 2018
249,anito,24,PH,1538269271,100,12.45,125.29,81.37,8.08,Sat Sep 29 21:01:11 2018
250,filadelfia,12,PY,1538269271,51,-22.35,-60.04,89.2,16.69,Sat Sep 29 21:01:11 2018
251,okha,24,RU,1538269271,67,53.59,142.95,52.03,8.63,Sat Sep 29 21:01:11 2018
252,kikwit,76,CD,1538269271,92,-5.04,18.82,71.47,2.93,Sat Sep 29 21:01:11 2018
253,niquelandia,32,BR,1538269271,46,-14.47,-48.46,80.74,4.38,Sat Sep 29 21:01:11 2018
254,changzhou,0,CN,1538269272,82,31.81,119.97,69.13,8.41,Sat Sep 29 21:01:12 2018
255,shubarshi,0,KZ,1538269273,87,48.59,57.19,45.82,5.17,Sat Sep 29 21:01:13 2018
256,puerto baquerizo moreno,75,EC,1538265600,88,-0.9,-89.6,71.6,13.87,Sat Sep 29 20:00:00 2018
257,nizwa,0,OM,1538269273,63,22.93,57.53,66.79,2.71,Sat Sep 29 21:01:13 2018
258,baykit,32,RU,1538269273,94,61.68,96.39,39.52,8.97,Sat Sep 29 21:01:13 2018
259,kodino,0,RU,1538269273,91,63.72,39.64,29.62,6.62,Sat Sep 29 21:01:13 2018
260,mount pleasant,75,US,1538266500,80,33.16,-94.97,75.74,3.36,Sat Sep 29 20:15:00 2018
261,leh,36,IN,1538269274,85,34.16,77.58,5.59,1.92,Sat Sep 29 21:01:14 2018
262,buin,75,CL,1538269200,76,-33.73,-70.74,53.6,8.05,Sat Sep 29 21:00:00 2018
263,taoudenni,36,ML,1538269275,27,22.68,-3.98,77.59,7.4,Sat Sep 29 21:01:15 2018
264,kaduy,0,RU,1538269275,87,59.2,37.15,27.28,8.41,Sat Sep 29 21:01:15 2018
265,huarmey,0,PE,1538269133,69,-10.07,-78.15,63.82,3.49,Sat Sep 29 20:58:53 2018
266,lavrentiya,92,RU,1538269275,88,65.58,-170.99,46.72,22.84,Sat Sep 29 21:01:15 2018
267,tigil,48,RU,1538269275,81,57.8,158.67,45.01,14.45,Sat Sep 29 21:01:15 2018
268,solnechnyy,88,RU,1538269008,74,50.72,136.64,45.46,5.39,Sat Sep 29 20:56:48 2018
269,zamora,12,ES,1538267400,76,41.51,-5.74,53.6,2.24,Sat Sep 29 20:30:00 2018
270,sobolevo,48,RU,1538269276,74,54.43,31.9,28.27,5.06,Sat Sep 29 21:01:16 2018
271,chifeng,12,CN,1538269276,61,42.27,118.96,41.77,7.07,Sat Sep 29 21:01:16 2018
272,partizanskoye,12,UA,1538269276,84,44.83,34.08,39.7,2.04,Sat Sep 29 21:01:16 2018
273,coihaique,75,CL,1538265600,62,-45.58,-72.07,32.0,3.36,Sat Sep 29 20:00:00 2018
274,chokurdakh,92,RU,1538269021,96,70.62,147.9,32.86,16.46,Sat Sep 29 20:57:01 2018
275,waingapu,0,ID,1538269082,75,-9.65,120.26,79.75,4.61,Sat Sep 29 20:58:02 2018
276,umm kaddadah,0,SD,1538269277,53,13.6,26.69,73.99,3.49,Sat Sep 29 21:01:17 2018
277,mortka,48,RU,1538269042,80,59.33,66.02,44.2,7.96,Sat Sep 29 20:57:22 2018
278,buzmeyin,0,TM,1538265600,68,38.05,58.21,60.8,4.7,Sat Sep 29 20:00:00 2018
279,soller,0,DE,1538268600,77,50.73,6.56,41.0,1.12,Sat Sep 29 20:50:00 2018
280,palmer,0,AU,1538267400,36,-34.85,139.16,62.6,12.75,Sat Sep 29 20:30:00 2018
281,kangaatsiaq,88,GL,1538269278,99,68.31,-53.46,36.28,14.23,Sat Sep 29 21:01:18 2018
282,nuuk,88,GL,1538268600,48,64.17,-51.74,44.6,4.7,Sat Sep 29 20:50:00 2018
283,srandakan,80,ID,1538269278,87,-7.94,110.25,73.99,4.05,Sat Sep 29 21:01:18 2018
284,mount abu,0,IN,1538269278,78,24.59,72.71,67.33,2.37,Sat Sep 29 21:01:18 2018
285,alice town,68,BS,1538269048,100,25.72,-79.3,83.62,20.27,Sat Sep 29 20:57:28 2018
286,arai,90,JP,1538266980,93,35.71,139.67,66.2,8.05,Sat Sep 29 20:23:00 2018
287,yuzhnyy,0,RU,1538269280,91,53.54,39.45,31.87,4.16,Sat Sep 29 21:01:20 2018
288,kholmogory,40,RU,1538267400,100,64.23,41.65,33.8,6.71,Sat Sep 29 20:30:00 2018
289,bollnas,0,SE,1538269280,70,61.35,16.39,46.99,11.21,Sat Sep 29 21:01:20 2018
290,saint-francois,0,FR,1538267400,87,46.42,3.91,46.4,1.12,Sat Sep 29 20:30:00 2018
291,liepaja,92,LV,1538268600,71,56.52,21.02,55.4,21.92,Sat Sep 29 20:50:00 2018
292,sao joao da barra,92,BR,1538268993,100,-21.64,-41.05,74.35,7.74,Sat Sep 29 20:56:33 2018
293,metairie,40,US,1538267760,79,29.99,-90.15,80.96,4.7,Sat Sep 29 20:36:00 2018
294,bandarbeyla,20,SO,1538269281,99,9.49,50.81,76.87,18.14,Sat Sep 29 21:01:21 2018
295,mareeba,20,AU,1538267400,48,-16.99,145.42,82.4,19.46,Sat Sep 29 20:30:00 2018
296,aloleng,80,PH,1538269281,100,16.13,119.78,80.2,5.73,Sat Sep 29 21:01:21 2018
297,bougouni,32,ML,1538269281,94,11.42,-7.49,72.55,2.93,Sat Sep 29 21:01:21 2018
298,makakilo city,20,US,1538266200,67,21.35,-158.09,89.06,8.05,Sat Sep 29 20:10:00 2018
299,yichun,0,CN,1538269282,72,47.72,128.88,51.76,3.15,Sat Sep 29 21:01:22 2018
300,sitka,0,US,1538269282,54,37.17,-99.65,77.32,16.58,Sat Sep 29 21:01:22 2018
301,tuatapere,0,NZ,1538269025,95,-46.13,167.69,51.49,3.94,Sat Sep 29 20:57:05 2018
302,killarney,68,AU,1538269282,86,-28.34,152.3,59.95,4.94,Sat Sep 29 21:01:22 2018
303,labuhan,0,ID,1538269045,79,-2.54,115.51,79.12,2.37,Sat Sep 29 20:57:25 2018
304,nanortalik,92,GL,1538268991,95,60.14,-45.24,37.09,20.15,Sat Sep 29 20:56:31 2018
305,pionerskiy,0,RU,1538269283,81,61.2,62.86,38.53,7.07,Sat Sep 29 21:01:23 2018
306,boundiali,76,CI,1538269283,93,9.53,-6.48,72.46,1.59,Sat Sep 29 21:01:23 2018
307,ambilobe,0,MG,1538269283,78,-13.19,49.05,68.05,7.4,Sat Sep 29 21:01:23 2018
308,meulaboh,92,ID,1538269283,100,4.14,96.13,75.7,2.48,Sat Sep 29 21:01:23 2018
309,nizhnevartovsk,75,RU,1538267400,81,60.93,76.58,44.6,15.66,Sat Sep 29 20:30:00 2018
310,sayat,0,TM,1538265600,51,38.78,63.88,59.0,6.93,Sat Sep 29 20:00:00 2018
311,najran,0,SA,1538265600,26,17.54,44.22,71.6,2.59,Sat Sep 29 20:00:00 2018
312,iberia,24,PE,1538269156,86,-11.41,-69.49,79.57,1.59,Sat Sep 29 20:59:16 2018
313,chapais,90,CA,1538267700,86,49.78,-74.86,39.2,3.36,Sat Sep 29 20:35:00 2018
314,halifax,75,CA,1538265600,100,44.65,-63.58,53.6,9.17,Sat Sep 29 20:00:00 2018
315,tacuarembo,92,UY,1538269285,99,-31.73,-55.98,68.86,6.51,Sat Sep 29 21:01:25 2018
316,whitehorse,5,CA,1538265600,36,60.72,-135.06,48.2,8.05,Sat Sep 29 20:00:00 2018
317,holeby,56,DK,1538269286,98,54.71,11.46,55.45,23.29,Sat Sep 29 21:01:26 2018
318,carutapera,68,BR,1538269286,81,-1.2,-46.02,80.02,11.21,Sat Sep 29 21:01:26 2018
319,samarai,48,PG,1538269028,98,-10.62,150.67,78.67,20.04,Sat Sep 29 20:57:08 2018
320,basco,90,US,1538267700,93,40.33,-91.2,62.06,6.96,Sat Sep 29 20:35:00 2018
321,taltal,0,CL,1538269104,88,-25.41,-70.49,57.88,1.92,Sat Sep 29 20:58:24 2018
322,evensk,92,RU,1538269008,100,61.92,159.24,41.05,11.1,Sat Sep 29 20:56:48 2018
323,joensuu,90,FI,1538268600,93,62.6,29.76,39.2,10.29,Sat Sep 29 20:50:00 2018
324,howard springs,0,AU,1538267400,28,-12.5,131.05,86.0,21.92,Sat Sep 29 20:30:00 2018
325,cockburn town,80,TC,1538269270,97,21.46,-71.14,83.71,17.81,Sat Sep 29 21:01:10 2018
326,grand gaube,40,MU,1538265600,83,-20.01,57.66,69.8,10.29,Sat Sep 29 20:00:00 2018
327,khorixas,64,NA,1538269287,83,-20.37,14.96,65.44,2.37,Sat Sep 29 21:01:27 2018
328,lasa,0,CY,1538267400,53,34.92,32.53,77.0,3.36,Sat Sep 29 20:30:00 2018
329,slave lake,90,CA,1538265600,55,55.28,-114.77,35.6,8.05,Sat Sep 29 20:00:00 2018
330,shitanjing,12,CN,1538269287,54,39.23,106.34,34.21,1.59,Sat Sep 29 21:01:27 2018
331,aranos,36,NA,1538269288,43,-24.14,19.11,71.47,10.76,Sat Sep 29 21:01:28 2018
332,mitsamiouli,0,KM,1538269046,100,-11.38,43.28,74.98,4.38,Sat Sep 29 20:57:26 2018
333,khani,0,GE,1538267400,87,41.96,42.96,59.0,5.82,Sat Sep 29 20:30:00 2018
334,bekhtery,68,UA,1538269288,97,46.25,32.3,56.8,15.46,Sat Sep 29 21:01:28 2018
335,pierre,90,US,1538265180,83,44.37,-100.35,48.92,6.93,Sat Sep 29 19:53:00 2018
336,cairns,20,AU,1538267400,48,-16.92,145.77,82.4,19.46,Sat Sep 29 20:30:00 2018
337,hualmay,8,PE,1538269288,84,-11.1,-77.61,61.84,4.72,Sat Sep 29 21:01:28 2018
338,hasaki,75,JP,1538266080,100,35.73,140.83,68.0,8.05,Sat Sep 29 20:08:00 2018
339,los llanos de aridane,44,ES,1538267400,73,28.66,-17.92,73.4,11.41,Sat Sep 29 20:30:00 2018
340,zhenhai,0,CN,1538265600,60,29.95,121.71,73.4,11.18,Sat Sep 29 20:00:00 2018
341,kidal,56,ML,1538269289,53,18.44,1.41,76.42,2.93,Sat Sep 29 21:01:29 2018
342,ancud,12,CL,1538269289,79,-41.87,-73.83,39.52,8.41,Sat Sep 29 21:01:29 2018
343,tres arroyos,0,AR,1538269232,90,-38.38,-60.28,50.77,9.08,Sat Sep 29 21:00:32 2018
344,westport,20,IE,1538269032,98,53.8,-9.52,49.6,10.54,Sat Sep 29 20:57:12 2018
345,broome,0,GB,1538266800,93,52.47,1.45,42.8,5.82,Sat Sep 29 20:20:00 2018
346,west wendover,1,US,1538265360,2,40.74,-114.07,84.92,20.8,Sat Sep 29 19:56:00 2018
347,ivybridge,0,GB,1538269290,100,50.39,-3.92,48.07,2.93,Sat Sep 29 21:01:30 2018
348,sola,75,NO,1538266800,87,58.89,5.65,51.8,17.22,Sat Sep 29 20:20:00 2018
349,floro,92,NO,1538266800,71,61.6,5.03,50.0,23.04,Sat Sep 29 20:20:00 2018
350,hamilton,20,BM,1538265300,83,32.3,-64.78,80.6,10.29,Sat Sep 29 19:55:00 2018
351,cabo san lucas,75,MX,1538267160,88,22.89,-109.91,80.6,3.36,Sat Sep 29 20:26:00 2018
352,gambela,44,ET,1538269290,86,8.25,34.59,62.02,3.15,Sat Sep 29 21:01:30 2018
353,lagoa,0,PT,1538267400,77,37.14,-8.45,69.8,2.24,Sat Sep 29 20:30:00 2018
354,udupi,40,IN,1538267400,94,13.34,74.75,75.2,4.7,Sat Sep 29 20:30:00 2018
355,pisco,0,PE,1538265600,30,-13.71,-76.2,71.6,16.11,Sat Sep 29 20:00:00 2018
356,vestmanna,76,FO,1538266800,87,62.16,-7.17,44.6,16.11,Sat Sep 29 20:20:00 2018
357,oktyabrskiy,0,RU,1538267400,85,55.61,37.97,32.0,2.24,Sat Sep 29 20:30:00 2018
358,broken hill,0,AU,1538269293,43,-31.97,141.45,60.22,11.65,Sat Sep 29 21:01:33 2018
359,soyo,8,AO,1538269026,94,-6.13,12.37,72.46,3.94,Sat Sep 29 20:57:06 2018
360,puerto escondido,40,MX,1538264460,74,15.86,-97.07,84.2,4.72,Sat Sep 29 19:41:00 2018
361,gornozavodsk,88,RU,1538269294,89,58.37,58.33,40.51,8.19,Sat Sep 29 21:01:34 2018
362,alofi,24,NU,1538265600,61,-19.06,-169.92,78.8,14.99,Sat Sep 29 20:00:00 2018
363,north bend,75,US,1538266500,56,43.41,-124.22,66.92,11.41,Sat Sep 29 20:15:00 2018
364,ormara,0,PK,1538269294,90,25.21,64.64,78.4,13.44,Sat Sep 29 21:01:34 2018
365,dharchula,0,IN,1538269294,60,29.85,80.53,46.0,1.92,Sat Sep 29 21:01:34 2018
366,pasighat,36,IN,1538269294,88,28.06,95.33,67.87,2.15,Sat Sep 29 21:01:34 2018
367,keetmanshoop,0,NA,1538269295,32,-26.57,18.15,66.52,8.41,Sat Sep 29 21:01:35 2018
368,quatre cocos,40,MU,1538265600,83,-20.21,57.76,69.8,10.29,Sat Sep 29 20:00:00 2018
369,aykhal,68,RU,1538269295,90,65.95,111.51,37.72,2.71,Sat Sep 29 21:01:35 2018
370,griffith,0,AU,1538269295,54,-34.29,146.06,58.24,6.62,Sat Sep 29 21:01:35 2018
371,buraydah,0,SA,1538265600,29,26.33,43.97,75.2,4.7,Sat Sep 29 20:00:00 2018
372,vung tau,75,VN,1538267400,94,10.35,107.08,78.8,6.93,Sat Sep 29 20:30:00 2018
373,christchurch,68,NZ,1538267400,87,-43.53,172.64,51.8,4.7,Sat Sep 29 20:30:00 2018
374,porto novo,40,BR,1538265600,83,-23.68,-45.44,69.8,3.36,Sat Sep 29 20:00:00 2018
375,kathu,24,ZA,1538269296,26,-27.7,23.05,59.59,5.73,Sat Sep 29 21:01:36 2018
376,san quintin,20,PH,1538265600,83,17.54,120.52,78.8,4.7,Sat Sep 29 20:00:00 2018
377,mweka,88,CD,1538269296,97,-4.85,21.56,72.73,2.15,Sat Sep 29 21:01:36 2018
378,nyurba,88,RU,1538269296,95,63.29,118.35,42.76,5.17,Sat Sep 29 21:01:36 2018
379,kelowna,90,CA,1538265600,39,49.89,-119.5,62.6,16.11,Sat Sep 29 20:00:00 2018
380,dzhebariki-khaya,0,RU,1538269296,68,62.22,135.8,33.67,5.61,Sat Sep 29 21:01:36 2018
381,mandalgovi,8,MN,1538269083,93,45.76,106.27,30.43,10.54,Sat Sep 29 20:58:03 2018
382,borogontsy,56,RU,1538269297,68,62.67,131.17,33.04,3.71,Sat Sep 29 21:01:37 2018
383,zeya,0,RU,1538269297,53,53.74,127.27,44.02,6.62,Sat Sep 29 21:01:37 2018
384,bay-khaak,64,RU,1538269297,93,51.16,94.47,40.51,2.04,Sat Sep 29 21:01:37 2018
385,tual,0,ID,1538269297,99,-5.67,132.75,80.2,17.47,Sat Sep 29 21:01:37 2018
386,callaway,90,US,1538268780,80,46.98,-95.91,42.98,6.93,Sat Sep 29 20:53:00 2018
387,haysville,20,US,1538266680,72,37.56,-97.35,73.04,11.41,Sat Sep 29 20:18:00 2018
388,eyl,24,SO,1538268986,93,7.98,49.82,75.7,13.22,Sat Sep 29 20:56:26 2018
389,thunder bay,75,CA,1538265600,52,48.41,-89.26,42.8,4.7,Sat Sep 29 20:00:00 2018
390,kovdor,92,RU,1538269298,86,67.56,30.47,35.29,9.42,Sat Sep 29 21:01:38 2018
391,kapit,56,MY,1538269298,95,2.02,112.94,74.35,2.59,Sat Sep 29 21:01:38 2018
392,sambava,88,MG,1538269018,100,-14.27,50.17,73.36,13.22,Sat Sep 29 20:56:58 2018
393,ostersund,12,SE,1538266800,70,63.18,14.64,44.6,11.41,Sat Sep 29 20:20:00 2018
394,cabras,36,CO,1538269299,92,5.5,-75.6,62.74,1.36,Sat Sep 29 21:01:39 2018
395,greenville,40,US,1538267700,100,34.85,-82.4,78.08,6.93,Sat Sep 29 20:35:00 2018
396,moron,44,VE,1538269025,82,10.49,-68.2,74.71,1.7,Sat Sep 29 20:57:05 2018
397,nhulunbuy,75,AU,1538267400,54,-12.18,136.78,82.4,20.8,Sat Sep 29 20:30:00 2018
398,sumbe,0,AO,1538269300,100,-11.2,13.84,70.12,4.05,Sat Sep 29 21:01:40 2018
399,rio gallegos,75,AR,1538265600,64,-51.62,-69.22,39.2,9.17,Sat Sep 29 20:00:00 2018
400,uruzgan,0,AF,1538269300,80,32.93,66.63,30.97,0.69,Sat Sep 29 21:01:40 2018
401,timra,12,SE,1538266800,100,62.49,17.33,35.6,2.24,Sat Sep 29 20:20:00 2018
402,guanica,1,PR,1538268300,100,17.97,-66.91,75.2,4.7,Sat Sep 29 20:45:00 2018
403,itaberai,80,BR,1538269301,48,-16.02,-49.81,79.93,4.72,Sat Sep 29 21:01:41 2018
404,hvide sande,92,DK,1538266800,76,56.01,8.13,53.6,12.75,Sat Sep 29 20:20:00 2018
405,acari,0,BR,1538269100,67,-6.44,-36.64,76.69,11.21,Sat Sep 29 20:58:20 2018
406,mangrol,0,IN,1538269301,71,25.33,76.51,65.62,2.48,Sat Sep 29 21:01:41 2018
407,bow island,20,CA,1538265600,41,49.87,-111.38,41.0,14.99,Sat Sep 29 20:00:00 2018
408,faya,0,SA,1538265600,29,18.39,42.45,64.4,4.94,Sat Sep 29 20:00:00 2018
409,marzuq,0,YE,1538269277,86,14.4,46.47,52.57,2.48,Sat Sep 29 21:01:17 2018
410,taunggyi,68,MM,1538269302,98,20.78,97.03,67.24,2.71,Sat Sep 29 21:01:42 2018
411,sao caetano do sul,75,BR,1538269200,83,-23.62,-46.55,69.8,6.93,Sat Sep 29 21:00:00 2018
412,conceicao do coite,0,BR,1538269229,52,-11.56,-39.28,79.84,13.78,Sat Sep 29 21:00:29 2018
413,vysokogornyy,56,RU,1538269302,75,50.1,139.13,49.42,3.15,Sat Sep 29 21:01:42 2018
414,bremervorde,0,DE,1538268600,87,53.48,9.13,48.2,2.24,Sat Sep 29 20:50:00 2018
415,salinopolis,8,BR,1538269237,94,-0.61,-47.36,81.1,16.13,Sat Sep 29 21:00:37 2018
416,saint anthony,1,US,1538265360,30,43.97,-111.68,75.02,5.82,Sat Sep 29 19:56:00 2018
417,thinadhoo,100,MV,1538269303,100,0.53,72.93,82.54,15.68,Sat Sep 29 21:01:43 2018
418,zyryanka,92,RU,1538269303,91,65.73,150.89,35.02,10.98,Sat Sep 29 21:01:43 2018
419,longyearbyen,20,NO,1538265000,73,78.22,15.63,19.4,11.41,Sat Sep 29 19:50:00 2018
420,singarayakonda,0,IN,1538269303,94,15.25,80.02,75.34,2.93,Sat Sep 29 21:01:43 2018
421,rapar,0,IN,1538269303,77,23.57,70.65,71.02,6.62,Sat Sep 29 21:01:43 2018
422,seoul,20,KR,1538265600,64,37.57,126.98,69.8,2.24,Sat Sep 29 20:00:00 2018
423,kralendijk,12,BQ,1538265300,79,12.15,-68.27,84.2,13.87,Sat Sep 29 19:55:00 2018
424,coruripe,92,BR,1538269304,98,-10.12,-36.18,77.86,11.65,Sat Sep 29 21:01:44 2018
425,kazachinskoye,0,RU,1538269304,76,57.69,93.28,41.5,7.07,Sat Sep 29 21:01:44 2018
426,vendas novas,0,PT,1538267400,88,38.68,-8.46,64.4,5.82,Sat Sep 29 20:30:00 2018
427,rawson,80,AR,1538269304,27,-43.3,-65.11,62.11,18.81,Sat Sep 29 21:01:44 2018
428,college,1,US,1538265480,6,64.86,-147.8,63.14,9.17,Sat Sep 29 19:58:00 2018
429,isfana,0,KG,1538267400,58,39.84,69.53,57.2,2.37,Sat Sep 29 20:30:00 2018
430,faanui,12,PF,1538268978,100,-16.48,-151.75,77.32,4.5,Sat Sep 29 20:56:18 2018
431,taboshar,0,TJ,1538267400,58,40.57,69.64,57.2,2.37,Sat Sep 29 20:30:00 2018
432,beyneu,68,KZ,1538269305,46,45.32,55.19,59.77,7.96,Sat Sep 29 21:01:45 2018
433,salalah,40,OM,1538265000,83,17.01,54.1,75.2,4.7,Sat Sep 29 19:50:00 2018
434,xiamen,0,CN,1538265600,54,24.46,118.07,78.8,6.71,Sat Sep 29 20:00:00 2018
435,man,76,CI,1538269305,97,7.41,-7.55,71.74,1.7,Sat Sep 29 21:01:45 2018
436,suntar,92,RU,1538269305,86,62.16,117.65,42.85,6.51,Sat Sep 29 21:01:45 2018
437,sosnovo-ozerskoye,12,RU,1538269306,89,52.53,111.54,33.85,5.17,Sat Sep 29 21:01:46 2018
438,praia,0,BR,1538265600,77,-20.25,-43.81,69.8,10.29,Sat Sep 29 20:00:00 2018
439,rodos,20,GR,1538266800,73,36.44,28.22,75.2,1.12,Sat Sep 29 20:20:00 2018
440,acajutla,40,SV,1538265000,65,13.59,-89.83,80.6,2.24,Sat Sep 29 19:50:00 2018
441,karratha,8,AU,1538269015,65,-20.74,116.85,67.69,10.09,Sat Sep 29 20:56:55 2018
442,benguela,0,AO,1538269306,100,-12.58,13.4,69.31,3.38,Sat Sep 29 21:01:46 2018
443,kimbe,0,PG,1538269306,96,-5.56,150.15,82.45,7.4,Sat Sep 29 21:01:46 2018
444,tefe,12,BR,1538269275,80,-3.35,-64.71,81.82,5.39,Sat Sep 29 21:01:15 2018
445,zanjan,0,IR,1538269307,83,36.67,48.48,38.08,2.48,Sat Sep 29 21:01:47 2018
446,pangkalanbuun,0,ID,1538269307,86,-2.68,111.62,77.95,4.16,Sat Sep 29 21:01:47 2018
447,sosnovo,88,RU,1538269307,95,60.56,30.25,43.3,10.76,Sat Sep 29 21:01:47 2018
448,vila velha,75,BR,1538269200,78,-3.71,-38.6,80.6,12.75,Sat Sep 29 21:00:00 2018
449,srednekolymsk,92,RU,1538269013,89,67.46,153.71,34.21,8.08,Sat Sep 29 20:56:53 2018
450,santa rosa de cabal,40,CO,1538265600,78,4.86,-75.62,73.4,3.36,Sat Sep 29 20:00:00 2018
451,manono,44,CD,1538269308,90,-7.3,27.4,69.94,3.38,Sat Sep 29 21:01:48 2018
452,manado,20,ID,1538267400,55,1.49,124.85,86.0,3.36,Sat Sep 29 20:30:00 2018
453,sibolga,44,ID,1538269308,100,1.74,98.78,69.13,2.04,Sat Sep 29 21:01:48 2018
454,kotaparh,0,IN,1538269308,94,19.15,82.35,68.5,2.71,Sat Sep 29 21:01:48 2018
455,saint george,90,GR,1538265000,93,39.45,22.34,57.2,16.11,Sat Sep 29 19:50:00 2018
456,kulhudhuffushi,80,MV,1538269021,100,6.62,73.07,81.82,15.46,Sat Sep 29 20:57:01 2018
457,skjervoy,0,NO,1538266800,100,70.03,20.97,42.8,9.17,Sat Sep 29 20:20:00 2018
458,veraval,0,FR,1538267400,75,49.65,0.71,44.6,5.82,Sat Sep 29 20:30:00 2018
459,nong han,75,TH,1538265600,94,17.36,103.11,78.8,5.82,Sat Sep 29 20:00:00 2018
460,vao,92,EE,1538269309,100,59.1,26.19,43.39,15.79,Sat Sep 29 21:01:49 2018
461,synya,92,RU,1538269309,97,65.37,58.04,37.18,8.52,Sat Sep 29 21:01:49 2018
462,taksimo,0,RU,1538269309,91,56.36,114.84,26.92,2.37,Sat Sep 29 21:01:49 2018
463,lebanon,75,US,1538268960,82,43.64,-72.25,53.06,2.93,Sat Sep 29 20:56:00 2018
464,lompoc,1,US,1538267700,49,34.64,-120.46,71.6,13.87,Sat Sep 29 20:35:00 2018
465,bilibino,80,RU,1538269310,91,68.06,166.44,46.0,4.94,Sat Sep 29 21:01:50 2018
466,tipuani,32,BO,1538269310,89,-15.56,-68.02,67.78,0.92,Sat Sep 29 21:01:50 2018
467,bang saphan,20,TH,1538265600,94,11.21,99.51,78.8,2.24,Sat Sep 29 20:00:00 2018
468,damaturu,0,NG,1538269310,79,11.75,11.96,73.0,3.15,Sat Sep 29 21:01:50 2018
469,marawi,0,PH,1538269310,79,8.0,124.29,76.15,3.38,Sat Sep 29 21:01:50 2018
470,huanren,44,CN,1538269311,100,41.26,125.37,50.59,2.37,Sat Sep 29 21:01:51 2018
471,yunyang,64,CN,1538269311,83,32.84,110.81,60.4,2.15,Sat Sep 29 21:01:51 2018
472,brae,80,GB,1538266800,61,60.4,-1.35,50.0,21.92,Sat Sep 29 20:20:00 2018
473,necochea,0,AR,1538268998,94,-38.55,-58.74,51.67,9.19,Sat Sep 29 20:56:38 2018
474,storforshei,92,NO,1538269311,100,66.4,14.52,33.58,2.59,Sat Sep 29 21:01:51 2018
475,awjilah,88,LY,1538269312,52,29.14,21.3,64.09,2.93,Sat Sep 29 21:01:52 2018
476,horasan,0,TR,1538269312,83,40.04,42.16,34.39,2.93,Sat Sep 29 21:01:52 2018
477,oga,64,NG,1538269312,86,8.18,5.65,75.7,1.92,Sat Sep 29 21:01:52 2018
478,myaundzha,92,RU,1538269312,79,63.05,147.18,25.84,9.53,Sat Sep 29 21:01:52 2018
479,sisimiut,88,GL,1538269312,89,66.94,-53.67,29.44,1.92,Sat Sep 29 21:01:52 2018
480,ust-kuyga,88,RU,1538269313,94,70.0,135.55,30.88,3.71,Sat Sep 29 21:01:53 2018
481,minsk,0,BY,1538267400,93,53.9,27.56,35.6,4.47,Sat Sep 29 20:30:00 2018
482,garcia hernandez,20,PH,1538269313,93,9.61,124.29,83.44,9.42,Sat Sep 29 21:01:53 2018
483,road town,1,VG,1538265180,72,18.42,-64.62,80.96,11.41,Sat Sep 29 19:53:00 2018
484,cururupu,68,BR,1538269313,79,-1.82,-44.87,79.84,9.19,Sat Sep 29 21:01:53 2018
485,marathon,48,CA,1538269033,97,48.72,-86.38,40.24,9.98,Sat Sep 29 20:57:13 2018
486,omsukchan,76,RU,1538269313,94,62.53,155.8,33.67,3.6,Sat Sep 29 21:01:53 2018
487,jackson,1,US,1538266500,86,35.61,-88.82,73.04,4.16,Sat Sep 29 20:15:00 2018
488,turukhansk,76,RU,1538269314,96,65.8,87.96,41.77,14.79,Sat Sep 29 21:01:54 2018
489,grootfontein,64,NA,1538269314,43,-19.56,18.1,69.76,8.08,Sat Sep 29 21:01:54 2018
490,rincon,1,US,1538267700,88,32.3,-81.24,78.98,2.48,Sat Sep 29 20:35:00 2018
491,ko samui,20,TH,1538267400,74,9.54,99.94,86.0,7.18,Sat Sep 29 20:30:00 2018
492,tombouctou,44,ML,1538269117,67,16.77,-3.01,81.01,2.93,Sat Sep 29 20:58:37 2018
493,kpandae,36,GH,1538269314,91,8.46,-0.01,76.87,2.93,Sat Sep 29 21:01:54 2018
494,baft,0,IR,1538269315,46,29.23,56.61,33.22,2.59,Sat Sep 29 21:01:55 2018
495,cabedelo,40,BR,1538265600,83,-6.97,-34.84,77.0,9.17,Sat Sep 29 20:00:00 2018
496,auki,0,NG,1538269315,89,12.18,6.51,73.0,2.93,Sat Sep 29 21:01:55 2018
497,abha,0,SA,1538265600,29,18.22,42.5,64.4,1.92,Sat Sep 29 20:00:00 2018
498,kargasok,92,RU,1538269315,67,59.06,80.87,52.93,11.65,Sat Sep 29 21:01:55 2018
499,jabinyanah,20,TN,1538265600,72,35.03,10.91,68.0,3.36,Sat Sep 29 20:00:00 2018
500,san patricio,12,PY,1538269004,56,-26.98,-56.83,83.44,5.73,Sat Sep 29 20:56:44 2018
501,lumphat,20,KH,1538269316,93,13.5,106.97,75.25,2.93,Sat Sep 29 21:01:56 2018
502,kumluca,36,TR,1538268989,97,36.37,30.29,50.5,1.7,Sat Sep 29 20:56:29 2018
503,altamont,12,CA,1538268900,100,49.4,-98.5,44.6,5.73,Sat Sep 29 20:55:00 2018
504,isangel,92,VU,1538269316,100,-19.55,169.27,73.27,21.16,Sat Sep 29 21:01:56 2018
505,anzio,0,IT,1538266800,59,41.45,12.63,62.6,2.24,Sat Sep 29 20:20:00 2018
506,roald,92,NO,1538266800,81,62.58,6.12,48.2,23.04,Sat Sep 29 20:20:00 2018
507,yar-sale,76,RU,1538269005,100,66.83,70.83,43.21,17.02,Sat Sep 29 20:56:45 2018
508,kudahuvadhoo,76,MV,1538269016,100,2.67,72.89,83.44,17.02,Sat Sep 29 20:56:56 2018
509,lerwick,88,GB,1538268600,61,60.15,-1.15,50.0,24.16,Sat Sep 29 20:50:00 2018
510,pandrup,92,DK,1538269317,78,57.21,9.68,53.29,22.06,Sat Sep 29 21:01:57 2018
511,tiarei,40,PF,1538267400,61,-17.53,-149.33,82.4,10.29,Sat Sep 29 20:30:00 2018
512,vila franca do campo,20,PT,1538267400,82,37.72,-25.43,66.2,3.36,Sat Sep 29 20:30:00 2018
513,kunya,0,NG,1538269317,75,12.22,8.53,74.89,3.49,Sat Sep 29 21:01:57 2018
514,kalmunai,80,LK,1538269007,100,7.42,81.82,73.99,3.71,Sat Sep 29 20:56:47 2018
515,mildura,0,AU,1538269239,57,-34.18,142.16,59.5,6.62,Sat Sep 29 21:00:39 2018
516,sept-iles,20,CA,1538265600,60,50.2,-66.38,41.0,6.93,Sat Sep 29 20:00:00 2018
517,igarka,92,RU,1538269318,95,67.47,86.57,43.12,14.56,Sat Sep 29 21:01:58 2018
518,kiruna,92,SE,1538266800,93,67.86,20.23,35.6,4.7,Sat Sep 29 20:20:00 2018
519,flinders,0,AU,1538265600,36,-34.58,150.85,60.8,5.82,Sat Sep 29 20:00:00 2018
520,kloulklubed,75,PW,1538265180,74,7.04,134.26,86.0,12.75,Sat Sep 29 19:53:00 2018
521,porosozero,44,RU,1538269318,100,62.72,32.71,35.47,7.96,Sat Sep 29 21:01:58 2018
522,cao bang,0,VN,1538269318,84,22.67,106.25,65.89,3.94,Sat Sep 29 21:01:58 2018
523,marsaxlokk,0,MT,1538266500,77,35.84,14.54,66.2,2.24,Sat Sep 29 20:15:00 2018
524,harper,1,US,1538266500,80,30.3,-99.24,78.08,3.36,Sat Sep 29 20:15:00 2018
525,jacksonville beach,40,US,1538266620,74,30.29,-81.39,84.02,10.29,Sat Sep 29 20:17:00 2018
526,bubaque,40,GW,1538265600,94,11.28,-15.83,77.0,4.7,Sat Sep 29 20:00:00 2018
527,hofn,92,IS,1538269319,100,64.25,-15.21,40.87,27.87,Sat Sep 29 21:01:59 2018
528,manjacaze,92,MZ,1538269319,61,-24.71,33.88,70.75,18.81,Sat Sep 29 21:01:59 2018
529,mayumba,76,GA,1538269319,98,-3.44,10.65,74.35,4.61,Sat Sep 29 21:01:59 2018
530,saint-pierre,0,FR,1538267400,75,48.95,4.24,41.0,6.93,Sat Sep 29 20:30:00 2018
531,plettenberg bay,0,ZA,1538269253,98,-34.05,23.37,62.2,17.81,Sat Sep 29 21:00:53 2018
532,banda aceh,76,ID,1538269096,100,5.56,95.32,75.07,2.15,Sat Sep 29 20:58:16 2018
533,tomatlan,48,MX,1538269320,85,19.93,-105.25,80.2,2.59,Sat Sep 29 21:02:00 2018
534,salmas,0,IR,1538265600,66,38.2,44.77,50.0,4.7,Sat Sep 29 20:00:00 2018
535,gaurnadi,0,BD,1538269320,92,22.97,90.23,78.22,3.94,Sat Sep 29 21:02:00 2018
536,pangnirtung,92,CA,1538269271,99,66.15,-65.72,31.24,9.42,Sat Sep 29 21:01:11 2018
537,oliveira dos brejinhos,8,BR,1538269320,33,-12.32,-42.89,80.65,10.09,Sat Sep 29 21:02:00 2018
538,khonsa,56,IN,1538269320,92,26.99,95.51,69.4,2.15,Sat Sep 29 21:02:00 2018
539,aripuana,0,BR,1538269320,73,-9.17,-60.63,84.7,1.92,Sat Sep 29 21:02:00 2018
540,sabang,56,PH,1538269321,100,13.72,123.58,79.57,3.71,Sat Sep 29 21:02:01 2018
541,kitimat,5,CA,1538265600,24,54.02,-128.69,59.0,10.29,Sat Sep 29 20:00:00 2018
542,houma,0,CN,1538269321,51,35.63,111.36,51.22,4.05,Sat Sep 29 21:02:01 2018
543,khash,0,IR,1538269321,34,28.22,61.21,42.67,2.59,Sat Sep 29 21:02:01 2018
544,carmen,0,PH,1538269039,83,7.2,124.8,79.57,3.04,Sat Sep 29 20:57:19 2018
545,gorin,90,US,1538267700,93,40.36,-92.02,57.92,8.19,Sat Sep 29 20:35:00 2018
546,antalaha,64,MG,1538269025,96,-14.9,50.28,70.39,7.18,Sat Sep 29 20:57:05 2018
547,santiago del estero,24,AR,1538269145,33,-27.8,-64.26,87.4,6.96,Sat Sep 29 20:59:05 2018
548,atamanovka,32,RU,1538267400,70,51.92,113.65,46.4,6.71,Sat Sep 29 20:30:00 2018
549,vaitape,0,PF,1538269120,100,-16.52,-151.75,77.32,5.06,Sat Sep 29 20:58:40 2018
550,sawtell,75,AU,1538267400,63,-30.38,153.1,64.4,16.11,Sat Sep 29 20:30:00 2018
551,traverse city,90,US,1538267700,80,44.76,-85.62,46.04,7.63,Sat Sep 29 20:35:00 2018
552,lazaro cardenas,5,MX,1538264700,39,28.39,-105.62,78.8,5.82,Sat Sep 29 19:45:00 2018
553,ekhabi,24,RU,1538269276,67,53.51,142.97,52.03,8.63,Sat Sep 29 21:01:16 2018
554,danvers,1,US,1538268960,93,42.58,-70.93,62.06,3.36,Sat Sep 29 20:56:00 2018
555,teya,20,MX,1538264880,70,21.05,-89.07,84.2,11.41,Sat Sep 29 19:48:00 2018
556,inverness,36,GB,1538268600,81,57.48,-4.23,46.4,9.17,Sat Sep 29 20:50:00 2018
557,phultala,88,BD,1538269324,90,22.7,89.52,79.93,5.95,Sat Sep 29 21:02:04 2018
558,madison heights,90,US,1538267760,45,42.49,-83.11,58.82,4.16,Sat Sep 29 20:36:00 2018
559,sovetskaya gavan,0,RU,1538269387,84,48.97,140.29,57.34,5.5,Sat Sep 29 21:03:07 2018
560,gigmoto,0,PH,1538269387,100,13.78,124.39,82.81,5.39,Sat Sep 29 21:03:07 2018
561,suez,32,EG,1538269325,88,29.97,32.54,69.31,3.38,Sat Sep 29 21:02:05 2018
